{"nickname":"grandmother","startTimeUtc":"2021-07-26T20:51:31.942614Z","tournament":{"players":[{"playerId":"5e8609cb3d4b6a3cf8dcfc9c","playerName":"HugoCL","totalPoints":12783,"games":[{"gamePoints":9212},{"gamePoints":3571}]}]},"games":[{"allGuesses":[[{"playerName":"HugoCL","playerId":"5e8609cb3d4b6a3cf8dcfc9c","roundScoreInPoints":6,"distanceInMeters":12597967.14885239,"time":5,"lat":-35.62521806092374,"lng":-69.33544659827817}],[{"playerName":"HugoCL","playerId":"5e8609cb3d4b6a3cf8dcfc9c","roundScoreInPoints":20,"distanceInMeters":10238920.324615749,"time":4,"lat":-80.56527874525591,"lng":-171.99169659827817}],[{"playerName":"HugoCL","playerId":"5e8609cb3d4b6a3cf8dcfc9c","roundScoreInPoints":3346,"distanceInMeters":744582.6747865587,"time":5,"lat":5.414694951635222,"lng":37.53955340172185}],[{"playerName":"HugoCL","playerId":"5e8609cb3d4b6a3cf8dcfc9c","roundScoreInPoints":34,"distanceInMeters":9269722.968208427,"time":4,"lat":-13.436717446273118,"lng":-58.08544659827817}],[{"playerName":"HugoCL","playerId":"5e8609cb3d4b6a3cf8dcfc9c","roundScoreInPoints":165,"distanceInMeters":6322411.8971590735,"time":3,"lat":9.59633927963166,"lng":-42.61669659827817}]],"playerGames":[{"player":"HugoCL","playerId":"5e8609cb3d4b6a3cf8dcfc9c","points":3571,"r1":{"points":6,"time":5},"r2":{"points":20,"time":4},"r3":{"points":3346,"time":5},"r4":{"points":34,"time":4},"r5":{"points":165,"time":3},"eliminatedInGame":null,"totalDistanceInMeters":39173605.013622195,"totalTime":20,"pinUrl":"pin/e5f74cec7074031d7943fe18a1fcd4ee.png"}],"answers":[{"lat":41.36650595613612,"lng":21.654468066992763,"countryCode":"MK","countryName":"North Macedonia"},{"lat":4.955164824227247,"lng":115.4310424365417,"countryCode":"MY","countryName":"Malaysia"},{"lat":-1.091720014499429,"lng":35.95467354632419,"countryCode":"KE","countryName":"Kenya"},{"lat":45.14608948320993,"lng":7.799237869912645,"countryCode":"IT","countryName":"Italy"},{"lat":64.84151722625248,"lng":-23.39761596304652,"countryCode":"IS","countryName":"Iceland"}],"mapName":"A Diverse World","gameNumber":2,"gameUrl":"https://www.geoguessr.com/results/5yoCmHhO2cr9dgKH","gameId":"5yoCmHhO2cr9dgKH","gameDescription":"30 sec. No move","playedWithEliminations":false,"forbidMoving":true,"forbidRotating":false,"forbidZooming":false,"timeLimit":30},{"allGuesses":[[{"playerName":"HugoCL","playerId":"5e8609cb3d4b6a3cf8dcfc9c","roundScoreInPoints":844,"distanceInMeters":3298520.220485878,"time":10,"lat":-24.070612559462884,"lng":-64.41357159827817}],[{"playerName":"HugoCL","playerId":"5e8609cb3d4b6a3cf8dcfc9c","roundScoreInPoints":4719,"distanceInMeters":107056.1034977841,"time":6,"lat":24.90372317065413,"lng":55.572825018159705}],[{"playerName":"HugoCL","playerId":"5e8609cb3d4b6a3cf8dcfc9c","roundScoreInPoints":3644,"distanceInMeters":586147.1167118171,"time":5,"lat":35.66746737564272,"lng":136.0556943501108}],[{"playerName":"HugoCL","playerId":"5e8609cb3d4b6a3cf8dcfc9c","roundScoreInPoints":5,"distanceInMeters":12657048.903917102,"time":5,"lat":51.94905392810855,"lng":42.52476559657845}],[{"playerName":"HugoCL","playerId":"5e8609cb3d4b6a3cf8dcfc9c","roundScoreInPoints":0,"distanceInMeters":6447855.409524839,"time":10,"lat":0,"lng":0}]],"playerGames":[{"player":"HugoCL","playerId":"5e8609cb3d4b6a3cf8dcfc9c","points":9212,"r1":{"points":844,"time":10},"r2":{"points":4719,"time":6},"r3":{"points":3644,"time":5},"r4":{"points":5,"time":5},"r5":{"points":0,"time":10},"eliminatedInGame":null,"totalDistanceInMeters":23096627.75413742,"totalTime":36,"pinUrl":"pin/e5f74cec7074031d7943fe18a1fcd4ee.png"}],"answers":[{"lat":4.527359551844572,"lng":-72.50440371068828,"countryCode":"CO","countryName":"Colombia"},{"lat":25.78272434569605,"lng":56.00747212370908,"countryCode":"AE","countryName":"United Arab Emirates"},{"lat":33.12440743240018,"lng":130.45812705886,"countryCode":"JP","countryName":"Japan"},{"lat":-22.38752489366142,"lng":143.0460510500292,"countryCode":"AU","countryName":"Australia"},{"lat":55.2478197181334,"lng":21.568947753065572,"countryCode":"LT","countryName":"Lithuania"}],"mapName":"A Diverse World","gameNumber":1,"gameUrl":"https://www.geoguessr.com/results/YgvNZTI4mriqsNQl","gameId":"YgvNZTI4mriqsNQl","gameDescription":"10 sec. NMPZ","playedWithEliminations":false,"forbidMoving":true,"forbidRotating":true,"forbidZooming":true,"timeLimit":10}]}