{"nickname":"grandmother","startTimeUtc":"2021-07-26T20:51:31.942614Z","tournament":{"players":[{"playerId":"5e8609cb3d4b6a3cf8dcfc9c","playerName":"HugoCL","totalPoints":9212,"games":[{"gamePoints":9212}]}]},"games":[{"allGuesses":[[{"playerName":"HugoCL","playerId":"5e8609cb3d4b6a3cf8dcfc9c","roundScoreInPoints":844,"distanceInMeters":3298520.220485878,"time":10,"lat":-24.070612559462884,"lng":-64.41357159827817}],[{"playerName":"HugoCL","playerId":"5e8609cb3d4b6a3cf8dcfc9c","roundScoreInPoints":4719,"distanceInMeters":107056.1034977841,"time":6,"lat":24.90372317065413,"lng":55.572825018159705}],[{"playerName":"HugoCL","playerId":"5e8609cb3d4b6a3cf8dcfc9c","roundScoreInPoints":3644,"distanceInMeters":586147.1167118171,"time":5,"lat":35.66746737564272,"lng":136.0556943501108}],[{"playerName":"HugoCL","playerId":"5e8609cb3d4b6a3cf8dcfc9c","roundScoreInPoints":5,"distanceInMeters":12657048.903917102,"time":5,"lat":51.94905392810855,"lng":42.52476559657845}],[{"playerName":"HugoCL","playerId":"5e8609cb3d4b6a3cf8dcfc9c","roundScoreInPoints":0,"distanceInMeters":6447855.409524839,"time":10,"lat":0,"lng":0}]],"playerGames":[{"player":"HugoCL","playerId":"5e8609cb3d4b6a3cf8dcfc9c","points":9212,"r1":{"points":844,"time":10},"r2":{"points":4719,"time":6},"r3":{"points":3644,"time":5},"r4":{"points":5,"time":5},"r5":{"points":0,"time":10},"eliminatedInGame":null,"totalDistanceInMeters":23096627.75413742,"totalTime":36,"pinUrl":"pin/e5f74cec7074031d7943fe18a1fcd4ee.png"}],"answers":[{"lat":4.527359551844572,"lng":-72.50440371068828,"countryCode":"CO","countryName":"Colombia"},{"lat":25.78272434569605,"lng":56.00747212370908,"countryCode":"AE","countryName":"United Arab Emirates"},{"lat":33.12440743240018,"lng":130.45812705886,"countryCode":"JP","countryName":"Japan"},{"lat":-22.38752489366142,"lng":143.0460510500292,"countryCode":"AU","countryName":"Australia"},{"lat":55.2478197181334,"lng":21.568947753065572,"countryCode":"LT","countryName":"Lithuania"}],"mapName":"A Diverse World","gameNumber":1,"gameUrl":"https://www.geoguessr.com/results/YgvNZTI4mriqsNQl","gameId":"YgvNZTI4mriqsNQl","gameDescription":"10 sec. NMPZ","playedWithEliminations":false,"forbidMoving":true,"forbidRotating":true,"forbidZooming":true,"timeLimit":10}]}